<?xml version="1.0" encoding="UTF-8"?>
<kml xmlns="http://earth.google.com/kml/2.1">
  <Document>
    <name>Berlin PM meetings</name>
    <description></description>
    <Style id="style1">
      <LineStyle>
        <color>ff0000ff</color>
        <width>4</width>
      </LineStyle>
      <PolyStyle>
        <color>ff0000ff</color>
      </PolyStyle>
    </Style>
    <Placemark>
      <name>2002-02-?? : Caf&#233; Orange : Oranienburger Str. 32 : Mitte : </name>
      <!-- Center to start -->
      <LookAt>
        <longitude>13.393556</longitude>
        <latitude>52.524968</latitude>
        <range>2000</range>
      </LookAt>
      <Point>
        <coordinates>
13.393556,52.524968
        </coordinates>
      </Point>
    </Placemark>
    <Placemark>
      <name>2002-03-?? : Tadshikische Teestube (?) : Oranienburger Str. 27 : Mitte : </name>
      <Point>
        <coordinates>
13.395001,52.524628
        </coordinates>
      </Point>
    </Placemark>
    <Placemark>
      <name>2002-04-?? : Joe Pe&#241;as : Marheinekeplatz 3 : Kreuzberg : </name>
      <Point>
        <coordinates>
13.396652,52.489310
        </coordinates>
      </Point>
    </Placemark>
    <Placemark>
      <name>2002-05-29 : Entweder/Oder : Oderberger Str. 15 : Prenzlauer Berg : </name>
      <Point>
        <coordinates>
13.408289,52.539220
        </coordinates>
      </Point>
    </Placemark>
    <Placemark>
      <name>2002-06-?? : Entweder/Oder (?) : Oderberger Str. 15 : Prenzlauer Berg : </name>
      <Point>
        <coordinates>
13.408289,52.539220
        </coordinates>
      </Point>
    </Placemark>
    <Placemark>
      <name>2002-07-31 : Schwarzes Caf&#233; : Kantstr. 148 : Charlottenburg : </name>
      <Point>
        <coordinates>
13.324146,52.505576
        </coordinates>
      </Point>
    </Placemark>
    <Placemark>
      <name>2002-08-28 : (?) : Wichertstr./Gudvanger Str. : Prenzlauer Berg : </name>
      <Point>
        <coordinates>
13.422610,52.548172
        </coordinates>
      </Point>
    </Placemark>
    <Placemark>
      <name>2002-09-25 : Caf&#233; Orange : Oranienburger Str. 32 : Mitte : </name>
      <Point>
        <coordinates>
13.393556,52.524968
        </coordinates>
      </Point>
    </Placemark>
    <Placemark>
      <name>2002-10-30 : Locus : Marheinekeplatz 4 : Kreuzberg : </name>
      <Point>
        <coordinates>
13.396389,52.489340
        </coordinates>
      </Point>
    </Placemark>
    <Placemark>
      <name>2002-11-27 : Tante Elli : L&#252;deritzstr. 5 : Wedding : </name>
      <Point>
        <coordinates>
13.349164,52.550044
        </coordinates>
      </Point>
    </Placemark>
    <Placemark>
      <name>2002-12-18 : Speedy Gonzales : Kastanienallee 26 : Prenzlauer Berg : </name>
      <Point>
        <coordinates>
13.408287,52.537404
        </coordinates>
      </Point>
    </Placemark>
    <Placemark>
      <name>2003-01-29 : Dicker Engel : Birkenstr. 44 : Moabit : </name>
      <Point>
        <coordinates>
13.340710,52.532261
        </coordinates>
      </Point>
    </Placemark>
    <Placemark>
      <name>2003-02-27 : Caf&#233; Garbaty : Breite Str. 43A : Pankow : </name>
      <Point>
        <coordinates>
13.411942,52.571288
        </coordinates>
      </Point>
    </Placemark>
    <Placemark>
      <name>2003-03-26 : Caf&#233; Hundertwasser : Simon-Dach-Str. 39 : Friedrichshain : </name>
      <Point>
        <coordinates>
13.456823,52.510880
        </coordinates>
      </Point>
    </Placemark>
    <Placemark>
      <name>2003-04-30 : Las cascadas : Feuerbachstr. 31 : Steglitz : </name>
      <Point>
        <coordinates>
13.330712,52.463703
        </coordinates>
      </Point>
    </Placemark>
    <Placemark>
      <name>2003-05-28 : Stra&#223;enbahn : Laubacher Str. 29 : Wilmersdorf : </name>
      <Point>
        <coordinates>
13.320489,52.477302
        </coordinates>
      </Point>
    </Placemark>
    <Placemark>
      <name>2003-06-25 : Entweder/Oder : Oderberger Str. 15 : Prenzlauer Berg : </name>
      <Point>
        <coordinates>
13.408289,52.539220
        </coordinates>
      </Point>
    </Placemark>
    <Placemark>
      <name>2003-07-30 : Schleusenkrug : am Landwehrkanal : Tiergarten : </name>
      <Point>
        <coordinates>
13.336045,52.511182
        </coordinates>
      </Point>
    </Placemark>
    <Placemark>
      <name>2003-08-27 : Josef Heinrich : B&#246;lschestr. 11 : Friedrichshagen : </name>
      <Point>
        <coordinates>
13.624653,52.448212
        </coordinates>
      </Point>
    </Placemark>
    <Placemark>
      <name>2003-09-24 : Kuchenkaiser : Oranienplatz 1 : Kreuzberg : </name>
      <Point>
        <coordinates>
13.416583,52.502822
        </coordinates>
      </Point>
    </Placemark>
    <Placemark>
      <name>2003-10-29 : Bergwerk : Bergstr. 68 : Mitte : </name>
      <Point>
        <coordinates>
13.394177,52.531641
        </coordinates>
      </Point>
    </Placemark>
    <Placemark>
      <name>2003-11-26 : Schollenkrug : Waidmannsluster Damm 77 : Waidmannslust : </name>
      <Point>
        <coordinates>
13.302880,52.600667
        </coordinates>
      </Point>
    </Placemark>
    <Placemark>
      <name>2003-12-17 : Caf&#233; Gottlob : Akazienstr. 16 : Sch&#246;neberg : </name>
      <Point>
        <coordinates>
13.35351,52.48940
        </coordinates>
      </Point>
    </Placemark>
    <Placemark>
      <name>2004-01-28 : Last century pub : Lenbachstr. 1 : Friedrichshain : </name>
      <Point>
        <coordinates>
13.468398,52.506860
        </coordinates>
      </Point>
    </Placemark>
    <Placemark>
      <name>2004-02-25 : Jalla Jalla : Kopenhagener Str. 4 : Prenzlauer Berg : </name>
      <Point>
        <coordinates>
13.412027,52.548881
        </coordinates>
      </Point>
    </Placemark>
    <Placemark>
      <name>2004-03-31 : Tiergarten-Quelle : Bachstr. 6 (Bogen 482) : Tiergarten : </name>
      <Point>
        <coordinates>
13.338469,52.516775
        </coordinates>
      </Point>
    </Placemark>
    <Placemark>
      <name>2004-04-28 : Tiroler Alpenstadl : Wichertstr. 43 : Prenzlauer Berg : </name>
      <Point>
        <coordinates>
13.427073,52.546163
        </coordinates>
      </Point>
    </Placemark>
    <Placemark>
      <name>2004-05-26 : Zwiebelfisch : Savignyplatz 7 : Charlottenburg : </name>
      <Point>
        <coordinates>
13.32161,52.50659
        </coordinates>
      </Point>
    </Placemark>
    <Placemark>
      <name>2004-07-28 : Caf&#233; Uebereck : Sonntagstr. 31 : Friedrichshain : </name>
      <Point>
        <coordinates>
13.466479,52.505370
        </coordinates>
      </Point>
    </Placemark>
    <Placemark>
      <name>2004-08-25 : Golgatha am Kreuzberg : Dudenstr. 40 : Kreuzberg : </name>
      <Point>
        <coordinates>
13.378335,52.486606
        </coordinates>
      </Point>
    </Placemark>
    <Placemark>
      <name>2004-09-29 : Caf&#233; Hundertwasser : Simon-Dach-Str. 39 : Friedrichshain : </name>
      <Point>
        <coordinates>
13.456823,52.510880
        </coordinates>
      </Point>
    </Placemark>
    <Placemark>
      <name>2004-11-24 : Cocktailbar Zeitlos 5 : Franklinstr. 10 : Charlottenburg : </name>
      <Point>
        <coordinates>
13.32881,52.51981
        </coordinates>
      </Point>
    </Placemark>
    <Placemark>
      <name>2004-12-22 : Caf&#233; Buchhandlung : Tucholskystr. 32 : Mitte : </name>
      <Point>
        <coordinates>
13.393727,52.526135
        </coordinates>
      </Point>
    </Placemark>
    <Placemark>
      <name>2005-02-23 : Locus : Marheinekeplatz 4 : Kreuzberg : </name>
      <Point>
        <coordinates>
13.396389,52.489340
        </coordinates>
      </Point>
    </Placemark>
    <Placemark>
      <name>2005-03-30 : Weinlokal neben Strandbad Mitte : Auguststr. : Mitte : </name>
      <Point>
        <coordinates>
13.397396,52.527191
        </coordinates>
      </Point>
    </Placemark>
    <Placemark>
      <name>2005-04-27 : Old Emerald Isle : Erkelenzdamm 49 : Kreuzberg : </name>
      <Point>
        <coordinates>
13.412995,52.497601
        </coordinates>
      </Point>
    </Placemark>
    <Placemark>
      <name>2005-05-25 : Zollpackhof : Elisabeth-Abegg-Str. 1 : Tiergarten : </name>
      <Point>
        <coordinates>
13.367068,52.521293
        </coordinates>
      </Point>
    </Placemark>
    <Placemark>
      <name>2005-06-29 : Capt'n Schillow : Str. des 17. Juni : Tiergarten : </name>
      <Point>
        <coordinates>
13.33197,52.51270
        </coordinates>
      </Point>
    </Placemark>
    <Placemark>
      <name>2005-07-27 : Caf&#233; Aroma : Hochkirchstr. 8 : Sch&#246;neberg : </name>
      <Point>
        <coordinates>
13.369547,52.489930
        </coordinates>
      </Point>
    </Placemark>
    <Placemark>
      <name>2005-08-31 : Restaurant Toulouse : Schwarzer Weg 71 : Tegel : </name>
      <Point>
        <coordinates>
13.255366,52.584956
        </coordinates>
      </Point>
    </Placemark>
    <Placemark>
      <name>2005-09-28 : frarosa : Zionskirchstr. 40 : Mitte : </name>
      <Point>
        <coordinates>
13.403046,52.534215
        </coordinates>
      </Point>
    </Placemark>
    <Placemark>
      <name>2005-10-17 : Caf&#233; Bilderbuch : Akazienstr. 28 : Sch&#246;neberg : </name>
      <Point>
        <coordinates>
13.355184,52.486697
        </coordinates>
      </Point>
    </Placemark>
    <Placemark>
      <name>2005-11-30 : Caf&#233; Mirell : Crellestr. 46 : Sch&#246;neberg : </name>
      <Point>
        <coordinates>
13.358333,52.487166
        </coordinates>
      </Point>
    </Placemark>
    <Placemark>
      <name>2006-01-25 : Istoria : Kollwitzstr. 64 : Prenzlauer Berg : </name>
      <Point>
        <coordinates>
13.417965,52.536030
        </coordinates>
      </Point>
    </Placemark>
    <Placemark>
      <name>2006-02-22 : Caf&#233; Rizz : Grimmstr. 21 : Kreuzberg : </name>
      <Point>
        <coordinates>
13.414437,52.493243
        </coordinates>
      </Point>
    </Placemark>
    <Placemark>
      <name>2006-03-29 : Caf&#233; Resonanz (?) : Ebersstr. 73 : Sch&#246;neberg : </name>
      <Point>
        <coordinates>
13.34968,52.47925
        </coordinates>
      </Point>
    </Placemark>
    <Placemark>
      <name>2006-05-03 : Rocco und seine Br&#252;der : Lausitzer Platz 13 : Kreuzberg : </name>
      <Point>
        <coordinates>
13.43081,52.50099
        </coordinates>
      </Point>
    </Placemark>
    <Placemark>
      <name>2006-05-31 : Schraders : Malplaquetstr. 16b : Wedding : </name>
      <Point>
        <coordinates>
13.358012,52.551574
        </coordinates>
      </Point>
    </Placemark>
    <Placemark>
      <name>2006-06-28 : Stadtstrand : M&#252;hlenstr. : Friedrichshain : </name>
      <Point>
        <coordinates>
13.444892,52.502945
        </coordinates>
      </Point>
    </Placemark>
    <Placemark>
      <name>2006-07-26 : Sch&#246;nwetter : Bernauer Str. 63 : Wedding : </name>
      <Point>
        <coordinates>
13.40270,52.54097
        </coordinates>
      </Point>
    </Placemark>
    <Placemark>
      <name>2006-08-30 : Das Speisezimmer : Chausseestr. 8 : Mitte : </name>
      <Point>
        <coordinates>
13.38736,52.52849
        </coordinates>
      </Point>
    </Placemark>
    <Placemark>
      <name>2006-09-26 : Restaurant Gl&#252;hwurm : Handjerystr. 77 : Friedenau : </name>
      <Point>
        <coordinates>
13.333278,52.471327
        </coordinates>
      </Point>
    </Placemark>
    <Placemark>
      <name>2006-10-25 : Caf&#233; Uebereck : Sonntagstr. 31 : Friedrichshain : </name>
      <Point>
        <coordinates>
13.466479,52.505370
        </coordinates>
      </Point>
    </Placemark>
    <Placemark>
      <name>2006-11-29 : Caf&#233; Uebereck : Sonntagstr. 31 : Friedrichshain : </name>
      <Point>
        <coordinates>
13.466479,52.505370
        </coordinates>
      </Point>
    </Placemark>
    <Placemark>
      <name>2006-12-20 : Stiege : Oranienstr. 47A : Kreuzberg : </name>
      <Point>
        <coordinates>
13.413633,52.503007
        </coordinates>
      </Point>
    </Placemark>
    <Placemark>
      <name>2007-01-31 : K&#252;lt&#252;rzeit : Simon-Dach-Str. 24 : Friedrichshain : </name>
      <Point>
        <coordinates>
13.455162,52.507859
        </coordinates>
      </Point>
    </Placemark>
    <Placemark>
      <name>2007-02-28 : Caf&#233; Altes Europa : Gipsstr. 11 : Mitte : </name>
      <Point>
        <coordinates>
13.400986,52.526775
        </coordinates>
      </Point>
    </Placemark>
    <Placemark>
      <name>2007-03-28 : Ballhaus Mitte : Auguststr. 24 : Mitte : </name>
      <Point>
        <coordinates>
13.396805,52.526658
        </coordinates>
      </Point>
    </Placemark>
    <Placemark>
      <name>2007-04-25 : META : Am Falkplatz 1 : Prenzlauer Berg : </name>
      <Point>
        <coordinates>
13.405985,52.545926
        </coordinates>
      </Point>
    </Placemark>
    <Placemark>
      <name>2007-05-30 : Deponie : Georgenstr. 5 : Mitte : </name>
      <Point>
        <coordinates>
13.39250,52.52016
        </coordinates>
      </Point>
    </Placemark>
    <Placemark>
      <name>2007-06-27 : Die Turnhalle : Holteistr. 6-9 : Friedrichshain : </name>
      <Point>
        <coordinates>
13.4653,52.50716
        </coordinates>
      </Point>
    </Placemark>
    <Placemark>
      <name>2007-07-25 : Golgatha am Kreuzberg : Dudenstr. 40 : Kreuzberg : </name>
      <Point>
        <coordinates>
13.378335,52.486606
        </coordinates>
      </Point>
    </Placemark>
    <Placemark>
      <name>2007-08-29 : Prater : Kastanienallee 7 : Prenzlauer Berg : </name>
      <Point>
        <coordinates>
13.410031,52.539821
        </coordinates>
      </Point>
    </Placemark>
    <Placemark>
      <name>2007-09-26 : Powwow : Grimmstr. 20 : Kreuzberg : </name>
      <Point>
        <coordinates>
13.414344,52.493091
        </coordinates>
      </Point>
    </Placemark>
    <Placemark>
      <name>2007-10-31 : Caf&#233; Uebereck : Sonntagstr. 31 : Friedrichshain : </name>
      <Point>
        <coordinates>
13.466479,52.505370
        </coordinates>
      </Point>
    </Placemark>
    <Placemark>
      <name>2007-11-28 : Sankt Oberholz : Rosenthaler Str. 72a : Mitte : </name>
      <Point>
        <coordinates>
13.401564,52.529520
        </coordinates>
      </Point>
    </Placemark>
    <Placemark>
      <name>2008-01-02 : Locus : Marheinekeplatz 4 : Kreuzberg : </name>
      <Point>
        <coordinates>
13.396389,52.489340
        </coordinates>
      </Point>
    </Placemark>
    <Placemark>
      <name>2008-01-30 : c-base : Rungestr. 20 : Mitte : </name>
      <Point>
        <coordinates>
13.419925,52.512955
        </coordinates>
      </Point>
    </Placemark>
    <Placemark>
      <name>2008-02-27 : Zur Letzten Instanz : Waisenstr. 14-16 : Mitte : </name>
      <Point>
        <coordinates>
13.413702,52.517321
        </coordinates>
      </Point>
    </Placemark>
    <Placemark>
      <name>2008-03-26 : Pap&#224; Pane di Sorrento : Ackerstr. 23 : Mitte : </name>
      <Point>
        <coordinates>
13.396334,52.531914
        </coordinates>
      </Point>
    </Placemark>
    <Placemark>
      <name>2008-04-30 : Die Turnhalle : Holteistr. 6-9 : Friedrichshain : </name>
      <Point>
        <coordinates>
13.4653,52.50716
        </coordinates>
      </Point>
    </Placemark>
    <Placemark>
      <name>2008-05-28 : Bundespressestrand : Kapelle-Ufer 1 : Mitte : </name>
      <Point>
        <coordinates>
13.375461,52.522746
        </coordinates>
      </Point>
    </Placemark>
    <Placemark>
      <name>2008-06-25 : Restaurant Paris-Moskau : Alt-Moabit 141 : Moabit : </name>
      <Point>
        <coordinates>
13.36447,52.52261
        </coordinates>
      </Point>
    </Placemark>
    <Placemark>
      <name>2008-07-30 : Z-Bar : Bergstr. 2 : Mitte : </name>
      <Point>
        <coordinates>
13.395588,52.529423
        </coordinates>
      </Point>
    </Placemark>
    <Placemark>
      <name>2008-08-27 : Nola's am Weinberg : Weinbergspark : Mitte : </name>
      <Point>
        <coordinates>
13.401891,52.532231
        </coordinates>
      </Point>
    </Placemark>
    <Placemark>
      <name>2008-09-24 : Caf&#233; Nord Sud : Auguststr. 87 : Mitte : </name>
      <Point>
        <coordinates>
13.391503,52.526051
        </coordinates>
      </Point>
    </Placemark>
    <Placemark>
      <name>2008-10-29 : Cocktailbar Zeitlos 5 : Franklinstr. 10 : Charlottenburg : </name>
      <Point>
        <coordinates>
13.32881,52.51981
        </coordinates>
      </Point>
    </Placemark>
    <Placemark>
      <name>2008-11-26 : Ein Brief von Gestern : B&#228;nschstr. 25 : Friedrichshain : </name>
      <Point>
        <coordinates>
13.462227,52.518922
        </coordinates>
      </Point>
    </Placemark>
    <Placemark>
      <name>2009-01-07 : Caf&#233; Nord Sud : Auguststr. 87 : Mitte : </name>
      <Point>
        <coordinates>
13.391503,52.526051
        </coordinates>
      </Point>
    </Placemark>
    <Placemark>
      <name>2009-01-28 : Spaghetti Western : Torstr. 179 : Mitte : </name>
      <Point>
        <coordinates>
13.394120,52.528639
        </coordinates>
      </Point>
    </Placemark>
    <Placemark>
      <name>2009-03-04 : Restaurant Honigmond : Tieckstr. 12 : Mitte : </name>
      <Point>
        <coordinates>
13.389313,52.529599
        </coordinates>
      </Point>
    </Placemark>
    <Placemark>
      <name>2009-03-25 : Locus : Marheinekeplatz 4 : Kreuzberg : </name>
      <Point>
        <coordinates>
13.396389,52.489340
        </coordinates>
      </Point>
    </Placemark>
    <Placemark>
      <name>2009-04-29 : Schleusenkrug : am Landwehrkanal : Tiergarten : </name>
      <Point>
        <coordinates>
13.336045,52.511182
        </coordinates>
      </Point>
    </Placemark>
    <Placemark>
      <name>2009-05-27 : Alpenst&#252;ck : Gartenstr. 9 : Mitte : </name>
      <Point>
        <coordinates>
13.391877,52.530156
        </coordinates>
      </Point>
    </Placemark>
    <Placemark>
      <name>2009-06-24 : Caf&#233; Uebereck : Sonntagstr. 31 : Friedrichshain : </name>
      <Point>
        <coordinates>
13.466479,52.505370
        </coordinates>
      </Point>
    </Placemark>
    <Placemark>
      <name>2009-07-29 : Prater : Kastanienallee 7 : Prenzlauer Berg : </name>
      <Point>
        <coordinates>
13.410031,52.539821
        </coordinates>
      </Point>
    </Placemark>
    <Placemark>
      <name>2009-08-26 : Freischwimmer : Vor dem Schlesischen Tor 2a : Kreuzberg : </name>
      <Point>
        <coordinates>
13.450492,52.497206
        </coordinates>
      </Point>
    </Placemark>
    <Placemark>
      <name>2009-09-30 : &#1044;&#1072;&#1095;&#1072; : Gabriel-Max-Str. 1 : Friedrichshain : </name>
      <Point>
        <coordinates>
13.457995,52.509419
        </coordinates>
      </Point>
    </Placemark>
    <Placemark>
      <name>2009-10-28 : Brechtkeller : Chausseestr. 125 : Mitte : </name>
      <Point>
        <coordinates>
13.384848,52.528947
        </coordinates>
      </Point>
    </Placemark>
    <Placemark>
      <name>2009-11-25 : Ankerklause : Kottbusser Damm 104 : Neuk&#246;lln : </name>
      <Point>
        <coordinates>
13.420300,52.495669
        </coordinates>
      </Point>
    </Placemark>
    <Placemark>
      <name>2010-01-06 : Assel : Oranienburger Str. 21 : Mitte : </name>
      <Point>
        <coordinates>
13.396326,52.524245
        </coordinates>
      </Point>
    </Placemark>
    <Placemark>
      <name>2010-01-27 : Orient Lounge : Oranienstr. 13 : Kreuzberg : </name>
      <Point>
        <coordinates>
13.423469,52.500238
        </coordinates>
      </Point>
    </Placemark>
    <Placemark>
      <name>2010-02-24 : Caf&#233; Nord Sud : Auguststr. 87 : Mitte : </name>
      <Point>
        <coordinates>
13.391503,52.526051
        </coordinates>
      </Point>
    </Placemark>
    <Placemark>
      <name>2010-03-31 : Restaurant Honigmond : Tieckstr. 12 : Mitte : </name>
      <Point>
        <coordinates>
13.389313,52.529599
        </coordinates>
      </Point>
    </Placemark>
    <Placemark>
      <name>2010-04-28 : Schleusenkrug : am Landwehrkanal : Tiergarten : </name>
      <Point>
        <coordinates>
13.336045,52.511182
        </coordinates>
      </Point>
    </Placemark>
    <Placemark>
      <name>2010-05-26 : Walhalla : Krefelder Str. 6 : Moabit : </name>
      <Point>
        <coordinates>
13.339539,52.524119
        </coordinates>
      </Point>
    </Placemark>
    <Placemark>
      <name>2010-06-30 : Brauerei Eschenbr&#228;u : Triftstr. 67 : Wedding : </name>
      <Point>
        <coordinates>
13.35969,52.54352
        </coordinates>
      </Point>
    </Placemark>
    <Placemark>
      <name>2010-07-28 : Zollpackhof : Elisabeth-Abegg-Str. 1 : Tiergarten : </name>
      <Point>
        <coordinates>
13.367068,52.521293
        </coordinates>
      </Point>
    </Placemark>
    <Placemark>
      <name>2010-08-25 : Die Turnhalle : Holteistr. 6-9 : Friedrichshain : </name>
      <Point>
        <coordinates>
13.4653,52.50716
        </coordinates>
      </Point>
    </Placemark>
    <Placemark>
      <name>2010-09-29 : Pap&#224; Pane di Sorrento : Ackerstr. 23 : Mitte : </name>
      <Point>
        <coordinates>
13.396334,52.531914
        </coordinates>
      </Point>
    </Placemark>
    <Placemark>
      <name>2010-10-27 : Caf&#233; Uebereck : Sonntagstr. 31 : Friedrichshain : </name>
      <Point>
        <coordinates>
13.466479,52.505370
        </coordinates>
      </Point>
    </Placemark>
    <Placemark>
      <name>2010-11-24 : Restaurant Fliegender Tisch : Mainzer Str. 10 : Friedrichshain : </name>
      <Point>
        <coordinates>
13.462163,52.513078
        </coordinates>
      </Point>
    </Placemark>
    <Placemark>
      <name>2011-01-05 : Locus : Marheinekeplatz 4 : Kreuzberg : </name>
      <Point>
        <coordinates>
13.396389,52.489340
        </coordinates>
      </Point>
    </Placemark>
    <Placemark>
      <name>2011-01-26 : Caf&#233; Nord Sud : Auguststr. 87 : Mitte : </name>
      <Point>
        <coordinates>
13.391503,52.526051
        </coordinates>
      </Point>
    </Placemark>
    <Placemark>
      <name>2011-02-23 : Caf&#233; Via Nova : Revaler Str. 9 : Friedrichshain : </name>
      <Point>
        <coordinates>
13.452824,52.508334
        </coordinates>
      </Point>
    </Placemark>
    <Placemark>
      <name>2011-03-30 : Ambar : Bochumer Str. 5 : Moabit : </name>
      <Point>
        <coordinates>
13.338005,52.523983
        </coordinates>
      </Point>
    </Placemark>
    <Placemark>
      <name>2011-04-27 : Schleusenkrug : am Landwehrkanal : Tiergarten : </name>
      <Point>
        <coordinates>
13.336045,52.511182
        </coordinates>
      </Point>
    </Placemark>
    <Placemark>
      <name>2011-05-25 : Villa Rixdorf : Richardplatz 6 : Neuk&#246;lln : </name>
      <Point>
        <coordinates>
13.444896,52.474217
        </coordinates>
      </Point>
    </Placemark>
    <Placemark>
      <name>2011-06-29 : Sommergarten in Alt-Moabit : Alt-Moabit 26 : Moabit : </name>
      <Point>
        <coordinates>
13.349450,52.524442
        </coordinates>
      </Point>
    </Placemark>
    <Placemark>
      <name>2011-07-27 : Cl&#228;rchens Ballhaus : Auguststr. 24 : Mitte : </name>
      <Point>
        <coordinates>
13.396805,52.526658
        </coordinates>
      </Point>
    </Placemark>
    <Placemark>
      <name>2011-08-10 : Cl&#228;rchens Ballhaus : Auguststr. 24 : Mitte : </name>
      <Point>
        <coordinates>
13.396805,52.526658
        </coordinates>
      </Point>
    </Placemark>
    <Placemark>
      <name>2011-08-31 : Prater : Kastanienallee 7 : Prenzlauer Berg : </name>
      <Point>
        <coordinates>
13.410031,52.539821
        </coordinates>
      </Point>
    </Placemark>
    <Placemark>
      <name>2011-09-28 : Hannibal : Skalitzer Str. : Kreuzberg : </name>
      <Point>
        <coordinates>
13.42801,52.49909
        </coordinates>
      </Point>
    </Placemark>
    <Placemark>
      <name>2011-10-26 : Trattoria Libau : Libauer Str. 10 : Friedrichshain : </name>
      <Point>
        <coordinates>
13.452785,52.508469
        </coordinates>
      </Point>
    </Placemark>
    <Placemark>
      <name>2011-11-30 : Locus : Marheinekeplatz 4 : Kreuzberg : </name>
      <Point>
        <coordinates>
13.396389,52.489340
        </coordinates>
      </Point>
    </Placemark>
    <Placemark>
      <name>2012-01-04 : Caf&#233; Nord Sud : Auguststr. 87 : Mitte : </name>
      <Point>
        <coordinates>
13.391503,52.526051
        </coordinates>
      </Point>
    </Placemark>
    <Placemark>
      <name>2012-01-25 : The Happy Pig's : Lenbachstr. 1 : Friedrichshain : </name>
      <Point>
        <coordinates>
13.468398,52.506860
        </coordinates>
      </Point>
    </Placemark>
    <Placemark>
      <name>2012-02-29 : Pap&#224; Pane di Sorrento : Ackerstr. 23 : Mitte : </name>
      <Point>
        <coordinates>
13.396334,52.531914
        </coordinates>
      </Point>
    </Placemark>
    <Placemark>
      <name>2012-03-28 : Helmut Kohl Bar : Emser Str. 122 : Neuk&#246;lln : </name>
      <Point>
        <coordinates>
13.435323,52.469071
        </coordinates>
      </Point>
    </Placemark>
    <Placemark>
      <name>2012-04-25 : Caf&#233; Uebereck : Sonntagstr. 31 : Friedrichshain : ~18</name>
      <Point>
        <coordinates>
13.466479,52.505370
        </coordinates>
      </Point>
    </Placemark>
    <Placemark>
      <name>2012-05-30 : Prater : Kastanienallee 7 : Prenzlauer Berg : </name>
      <Point>
        <coordinates>
13.410031,52.539821
        </coordinates>
      </Point>
    </Placemark>
    <Placemark>
      <name>2012-06-27 : Schleusenkrug : am Landwehrkanal : Tiergarten : </name>
      <Point>
        <coordinates>
13.336045,52.511182
        </coordinates>
      </Point>
    </Placemark>
    <Placemark>
      <name>2012-07-25 : Viasko : Erkelenzdamm 49 : Kreuzberg : </name>
      <Point>
        <coordinates>
13.412995,52.497601
        </coordinates>
      </Point>
    </Placemark>
    <Placemark>
      <name>2012-08-29 : Zollpackhof : Elisabeth-Abegg-Str. 1 : Tiergarten : </name>
      <Point>
        <coordinates>
13.367068,52.521293
        </coordinates>
      </Point>
    </Placemark>
    <Placemark>
      <name>2012-09-26 : Sophieneck : Gro&#223;e Hamburger Str. 37 : Mitte : </name>
      <Point>
        <coordinates>
13.398631,52.526279
        </coordinates>
      </Point>
    </Placemark>
    <Placemark>
      <name>2012-10-31 : Max &#38; Moritz : Oranienstr. 162 : Kreuzberg : </name>
      <Point>
        <coordinates>
13.41400,52.50263
        </coordinates>
      </Point>
    </Placemark>
    <Placemark>
      <name>2012-11-28 : Transit : Sonntagstr. 28 : Friedrichshain : </name>
      <Point>
        <coordinates>
13.465736,52.506017
        </coordinates>
      </Point>
    </Placemark>
    <Placemark>
      <name>2013-01-09 : Caf&#233; Nord Sud : Auguststr. 87 : Mitte : 15</name>
      <Point>
        <coordinates>
13.391503,52.526051
        </coordinates>
      </Point>
    </Placemark>
    <Placemark>
      <name>2013-01-30 : Caf&#233; Leander : Jungstr. 29 : Friedrichshain : 11</name>
      <Point>
        <coordinates>
13.466270,52.511846
        </coordinates>
      </Point>
    </Placemark>
    <Placemark>
      <name>2013-02-27 : Hirsch : Kopernikusstr. 3 : Friedrichshain : 4</name>
      <Point>
        <coordinates>
13.450453,52.510868
        </coordinates>
      </Point>
    </Placemark>
    <Placemark>
      <name>2013-03-27 : Restauration Tucholsky : Torstr. 189 : Mitte : 10</name>
      <Point>
        <coordinates>
13.392648,52.528424
        </coordinates>
      </Point>
    </Placemark>
    <Placemark>
      <name>2013-04-24 : Schleusenkrug : am Landwehrkanal : Tiergarten : ~13</name>
      <Point>
        <coordinates>
13.336045,52.511182
        </coordinates>
      </Point>
    </Placemark>
    <Placemark>
      <name>2013-05-29 : Nola's am Weinberg : Weinbergspark : Mitte : ~9</name>
      <Point>
        <coordinates>
13.401891,52.532231
        </coordinates>
      </Point>
    </Placemark>
    <Placemark>
      <name>2013-06-26 : il Ritrovo : Gabriel-Max-Str. 2 : Friedrichshain : 8</name>
      <Point>
        <coordinates>
13.458045,52.509590
        </coordinates>
      </Point>
    </Placemark>
    <Placemark>
      <name>2013-07-31 : Grill und Schlemmerbuffet : Rosenthaler Platz : Mitte : ~8</name>
      <Point>
        <coordinates>
13.401332,52.529603
        </coordinates>
      </Point>
    </Placemark>
    <Placemark>
      <name>2013-08-28 : Restaurant Tim : Bruno-Baum-Str. 71 : Marzahn : 12</name>
      <Point>
        <coordinates>
13.542803,52.536151
        </coordinates>
      </Point>
    </Placemark>
    <Placemark>
      <name>2013-09-25 : Tussy Lounge : Sonntagstr. 22 : Friedrichshain : ~8</name>
      <Point>
        <coordinates>
13.464723,52.506945
        </coordinates>
      </Point>
    </Placemark>
    <Placemark>
      <name>2013-10-30 : Ponte Verde : Kirchhofstr. 41 : Neuk&#246;lln : 15</name>
      <Point>
        <coordinates>
13.44276,52.47240
        </coordinates>
      </Point>
    </Placemark>
    <Placemark>
      <name>2013-11-27 : Elfida : Gabriel-Max-Str. 15 : Friedrichshain : ~15</name>
      <Point>
        <coordinates>
13.458677,52.511327
        </coordinates>
      </Point>
    </Placemark>
    <Placemark>
      <name>2014-01-08 : Caf&#233; Nord Sud : Auguststr. 87 : Mitte : 10</name>
      <Point>
        <coordinates>
13.391503,52.526051
        </coordinates>
      </Point>
    </Placemark>
    <Placemark>
      <name>2014-01-29 : Schalander : B&#228;nschstr. 91 : Friedrichshain : 10</name>
      <Point>
        <coordinates>
13.471629,52.517210
        </coordinates>
      </Point>
    </Placemark>
    <Placemark>
      <name>2014-02-26 : Schwarze Pumpe : Choriner Str. 76 : Mitte : 10</name>
      <Point>
        <coordinates>
13.406118,52.532374
        </coordinates>
      </Point>
    </Placemark>
    <Placemark>
      <name>2014-03-26 : Kuchenkaiser : Oranienplatz 1 : Kreuzberg : 7</name>
      <Point>
        <coordinates>
13.416583,52.502822
        </coordinates>
      </Point>
    </Placemark>
    <Placemark>
      <name>2014-04-30 : Caf&#233; Resonanz : Ebersstr. 73 : Sch&#246;neberg : </name>
      <Point>
        <coordinates>
13.34968,52.47925
        </coordinates>
      </Point>
    </Placemark>
    <Placemark>
      <name>2014-05-28 : Viasko : Erkelenzdamm 49 : Kreuzberg : ~9</name>
      <Point>
        <coordinates>
13.412995,52.497601
        </coordinates>
      </Point>
    </Placemark>
    <Placemark>
      <name>2014-06-25 : Bistro Zeus : Boxhagener Str. 29 : Friedrichshain : 8</name>
      <Point>
        <coordinates>
13.45887,52.51249
        </coordinates>
      </Point>
    </Placemark>
    <Placemark>
      <name>2014-07-30 : Villa Rixdorf : Richardplatz 6 : Neuk&#246;lln : 9</name>
      <Point>
        <coordinates>
13.444896,52.474217
        </coordinates>
      </Point>
    </Placemark>
    <Placemark>
      <name>2014-08-27 : Caf&#233; Uebereck : Sonntagstr. 31 : Friedrichshain : 15</name>
      <Point>
        <coordinates>
13.466479,52.505370
        </coordinates>
      </Point>
    </Placemark>
    <Placemark>
      <name>2014-09-24 : Aufsturz : Oranienburger Str. 67 : Mitte : 7</name>
      <Point>
        <coordinates>
13.39203,52.52501
        </coordinates>
      </Point>
    </Placemark>
    <Placemark>
      <name>2014-10-29 : Pap&#224; Pane di Sorrento : Ackerstr. 23 : Mitte : 10</name>
      <Point>
        <coordinates>
13.396334,52.531914
        </coordinates>
      </Point>
    </Placemark>
    <Placemark>
      <name>2014-11-26 : Chay Viet (&#38; Sloppy Joe's) : Brunnenstr. 164 : Mitte : 12</name>
      <Point>
        <coordinates>
13.39795,52.53423
        </coordinates>
      </Point>
    </Placemark>
    <Placemark>
      <name>2015-01-07 : Caf&#233; Nord Sud : Auguststr. 87 : Mitte : 9</name>
      <Point>
        <coordinates>
13.391503,52.526051
        </coordinates>
      </Point>
    </Placemark>
    <Placemark>
      <name>2015-01-28 : The Lir Irish Bar : Flensburger Str. 7 : Tiergarten : 7</name>
      <Point>
        <coordinates>
13.344371,52.520388
        </coordinates>
      </Point>
    </Placemark>
    <Placemark>
      <name>2015-02-25 : Intimes : Boxhagener Str. 107 : Friedrichshain : 8</name>
      <Point>
        <coordinates>
13.457859,52.512819
        </coordinates>
      </Point>
    </Placemark>
    <Placemark>
      <name>2015-03-25 : Wirtshaus Hasenheide : Hasenheide 18 : Kreuzberg : 14</name>
      <Point>
        <coordinates>
13.419691,52.487611
        </coordinates>
      </Point>
    </Placemark>
    <Placemark>
      <name>2015-04-29 : Gasthaus Figl : Urbanstr. 47 : Kreuzberg : 9</name>
      <Point>
        <coordinates>
13.417562,52.490367
        </coordinates>
      </Point>
    </Placemark>
    <Placemark>
      <name>2015-05-27 : Caf&#233; Uebereck : Sonntagstr. 31 : Friedrichshain : 5</name>
      <Point>
        <coordinates>
13.466479,52.505370
        </coordinates>
      </Point>
    </Placemark>
    <Placemark>
      <name>2015-06-24 : Schleusenkrug : am Landwehrkanal : Tiergarten : 8</name>
      <Point>
        <coordinates>
13.336045,52.511182
        </coordinates>
      </Point>
    </Placemark>
    <Placemark>
      <name>2015-07-29 : Strandbad Wei&#223;ensee : Berliner Allee 155 : Wei&#223;ensee : 7</name>
      <Point>
        <coordinates>
13.465827,52.553961
        </coordinates>
      </Point>
    </Placemark>
    <Placemark>
      <name>2015-08-26 : James June Sommergarten : Karl-Marx-Allee 93 : Friedrichshain : 11</name>
      <Point>
        <coordinates>
13.441393,52.517589
        </coordinates>
      </Point>
    </Placemark>
    <Placemark>
      <name>2015-09-30 : Brauhaus S&#252;dstern : Hasenheide 69 : Kreuzberg : 9</name>
      <Point>
        <coordinates>
13.41047,52.48843
        </coordinates>
      </Point>
    </Placemark>
    <Placemark>
      <name>2015-10-28 : Viasko : Erkelenzdamm 49 : Kreuzberg : 11</name>
      <Point>
        <coordinates>
13.412995,52.497601
        </coordinates>
      </Point>
    </Placemark>
    <Placemark>
      <name>2015-11-25 : Caf&#233; Schmitts : Oderstr. 8 : Friedrichshain : 10</name>
      <Point>
        <coordinates>
13.468645,52.51117
        </coordinates>
      </Point>
    </Placemark>
    <Placemark>
      <name>2016-01-06 : Caf&#233; Nord Sud : Auguststr. 87 : Mitte : 12</name>
      <Point>
        <coordinates>
13.391503,52.526051
        </coordinates>
      </Point>
    </Placemark>
    <Placemark>
      <name>2016-01-27 : Marinehaus : M&#228;rkisches Ufer 50 : Mitte : 11</name>
      <Point>
        <coordinates>
13.4159,52.51408
        </coordinates>
      </Point>
    </Placemark>
    <Placemark>
      <name>2016-02-24 : Trattoria del Corso : Hauptstr. 70 : Friedenau : 8</name>
      <Point>
        <coordinates>
13.33973,52.47549
        </coordinates>
      </Point>
    </Placemark>
    <Placemark>
      <name>2016-03-30 : Krankenhaus KEH : Herzbergstr. 79 : Lichtenberg : 14</name>
      <Point>
        <coordinates>
13.508606,52.526679
        </coordinates>
      </Point>
    </Placemark>
    <Placemark>
      <name>2016-04-27 : Flammerie Hugo Ball : Saalestr. 38 : Neuk&#246;lln : 11</name>
      <Point>
        <coordinates>
13.45475,52.47257
        </coordinates>
      </Point>
    </Placemark>
    <Placemark>
      <name>2016-05-25 : Caf&#233; Schmitts : Oderstr. 8 : Friedrichshain : 11</name>
      <Point>
        <coordinates>
13.468645,52.51117
        </coordinates>
      </Point>
    </Placemark>
    <Placemark>
      <name>2016-06-29 : Zollpackhof : Elisabeth-Abegg-Str. 1 : Tiergarten : 10</name>
      <Point>
        <coordinates>
13.367068,52.521293
        </coordinates>
      </Point>
    </Placemark>
    <Placemark>
      <name>2016-07-19 : Caf&#233; V : Lausitzer Platz 12 : Kreuzberg : 9</name>
      <Point>
        <coordinates>
13.43166,52.50076
        </coordinates>
      </Point>
    </Placemark>
    <Placemark>
      <name>2016-07-26 : Braugasthaus Dolden M&#228;del : Mehringdamm 80 : Kreuzberg : </name>
      <Point>
        <coordinates>
13.38594,52.48959
        </coordinates>
      </Point>
    </Placemark>
    <Placemark>
      <name>2016-08-31 : Prater : Kastanienallee 7 : Prenzlauer Berg : 15</name>
      <Point>
        <coordinates>
13.410031,52.539821
        </coordinates>
      </Point>
    </Placemark>
    <Placemark>
      <name>2016-09-28 : Zur kleinen Markthalle : Legiendamm 32 : Kreuzberg : 7</name>
      <Point>
        <coordinates>
13.416118,52.503776
        </coordinates>
      </Point>
    </Placemark>
    <Placemark>
      <name>2016-10-26 : Powwow : Grimmstr. 20 : Kreuzberg : 11</name>
      <Point>
        <coordinates>
13.414344,52.493091
        </coordinates>
      </Point>
    </Placemark>
    <Placemark>
      <name>2016-11-30 : Djimalaya : Invalidenstr. 159 : Mitte : 10</name>
      <Point>
        <coordinates>
13.397455,52.532392
        </coordinates>
      </Point>
    </Placemark>
    <Placemark>
      <name>2017-01-04 : Caf&#233; Leander : Jungstr. 29 : Friedrichshain : 14</name>
      <Point>
        <coordinates>
13.466270,52.511846
        </coordinates>
      </Point>
    </Placemark>
    <Placemark>
      <name>2017-01-25 : Caf&#233; Orange : Oranienburger Str. 32 : Mitte : 9</name>
      <Point>
        <coordinates>
13.393556,52.524968
        </coordinates>
      </Point>
    </Placemark>
    <Placemark>
      <name>2017-02-22 : Ora (Oranien Apotheke) : Oranienplatz 14 : Kreuzberg : 5</name>
      <Point>
        <coordinates>
13.41600,52.50141
        </coordinates>
      </Point>
    </Placemark>
    <Placemark>
      <name>2017-03-29 : Schnitzelei Berlin Mitte : Chausseestr. 8 : Mitte : 9</name>
      <Point>
        <coordinates>
13.38736,52.52849
        </coordinates>
      </Point>
    </Placemark>
    <Placemark>
      <name>2017-04-26 : Viasko : Erkelenzdamm 49 : Kreuzberg : 8</name>
      <Point>
        <coordinates>
13.412995,52.497601
        </coordinates>
      </Point>
    </Placemark>
    <Placemark>
      <name>2017-05-31 : Hafenrestaurant Deckshaus : M&#228;rkisches Ufer 34 : Mitte : 12</name>
      <Point>
        <coordinates>
13.412187,52.513831
        </coordinates>
      </Point>
    </Placemark>
    <Placemark>
      <name>2017-06-28 : Stone Brewing : Im Marienpark 23 : Mariendorf : 11</name>
      <Point>
        <coordinates>
13.36805,52.43818
        </coordinates>
      </Point>
    </Placemark>
    <Placemark>
      <name>2017-07-26 : Chay Village : Niederbarnimstra&#223;e 10 : Friedrichshain : 8</name>
      <Point>
        <coordinates>
13.45829,52.51356
        </coordinates>
      </Point>
    </Placemark>
    <Placemark>
      <name>2017-08-30 : Caf&#233; am Flie&#223; : Blankenburger Pflasterweg 40 : Stadtrandsiedlung Malchow : 11</name>
      <Point>
        <coordinates>
13.469406,52.584534
        </coordinates>
      </Point>
    </Placemark>
    <Placemark>
      <name>2017-09-27 : Brauhaus in Rixdorf : Glasower Str. 27 : Neuk&#246;lln : 8</name>
      <Point>
        <coordinates>
13.43595,52.46457
        </coordinates>
      </Point>
    </Placemark>
    <Placemark>
      <name>2017-10-25 : Brauhaus Lemke am Hackeschen Markt : Dircksenstr. 143 : Mitte : 7</name>
      <Point>
        <coordinates>
13.40419,52.52315
        </coordinates>
      </Point>
    </Placemark>
    <Placemark>
      <name>2017-11-29 : Bal&#233; : Schlesische Str. 35 : Kreuzberg : 11</name>
      <Point>
        <coordinates>
13.44534,52.49941
        </coordinates>
      </Point>
    </Placemark>
    <Placemark>
      <name>2018-01-03 : Brewdog : Ackerstr. 29 : Mitte : 10</name>
      <Point>
        <coordinates>
13.39577,52.53280
        </coordinates>
      </Point>
    </Placemark>
    <Placemark>
      <name>2018-01-31 : Lindenbr&#228;u am Potsdamer Platz : Bellevuestrasse 3-5 : Tiergarten : 12</name>
      <Point>
        <coordinates>
13.37233,52.51029
        </coordinates>
      </Point>
    </Placemark>
    <Placemark>
      <name>2018-02-28 : Pap&#224; Pane di Sorrento : Ackerstr. 23 : Mitte : 11</name>
      <Point>
        <coordinates>
13.396334,52.531914
        </coordinates>
      </Point>
    </Placemark>
    <Placemark>
      <name>2018-03-28 : Caf&#233; Morgenland : Skalitzer Str. 35 : Kreuzberg : 10</name>
      <Point>
        <coordinates>
13.42579,52.49886
        </coordinates>
      </Point>
    </Placemark>
    <Placemark>
      <name>2018-04-25 : Caf&#233; Butter : Pappelallee 73 : Prenzlauer Berg : 10</name>
      <Point>
        <coordinates>
13.41519,52.54395
        </coordinates>
      </Point>
    </Placemark>
    <Placemark>
      <name>2018-05-30 : Schleusenkrug : am Landwehrkanal : Tiergarten : 9</name>
      <Point>
        <coordinates>
13.336045,52.511182
        </coordinates>
      </Point>
    </Placemark>
    <Placemark>
      <name>2018-06-27 : J&#228;gerklause : Gr&#252;nberger Str. 1 : Friedrichshain : 8</name>
      <Point>
        <coordinates>
13.44776,52.51344
        </coordinates>
      </Point>
    </Placemark>
    <Placemark>
      <name>2018-07-25 : Biergarten Moabiter Freiheit : Alt-Moabit 24 : Moabit : 10</name>
      <Point>
        <coordinates>
13.34891,52.52526
        </coordinates>
      </Point>
    </Placemark>
    <Placemark>
      <name>2018-08-29 : M&#228;dchen ohne Abitur : K&#246;rtestr. 5 : Kreuzberg : 8</name>
      <Point>
        <coordinates>
13.41182,52.49139
        </coordinates>
      </Point>
    </Placemark>
    <Placemark>
      <name>2018-09-13 : Lindenbr&#228;u am Potsdamer Platz : Bellevuestrasse 3-5 : Tiergarten : 16</name>
      <Point>
        <coordinates>
13.37233,52.51029
        </coordinates>
      </Point>
    </Placemark>
    <Placemark>
      <name>2018-09-26 : Viasko : Erkelenzdamm 49 : Kreuzberg : 9</name>
      <Point>
        <coordinates>
13.412995,52.497601
        </coordinates>
      </Point>
    </Placemark>
    <Placemark>
      <name>2018-10-31 : Las Olas : Karl-Liebknecht-Str. 29 : Mitte : 15</name>
      <Point>
        <coordinates>
13.41246,52.52519
        </coordinates>
      </Point>
    </Placemark>
    <Placemark>
      <name>2018-11-28 : Schalander im RAW : Revaler Stra&#223;e 99 : Friedrichshain : 9</name>
      <Point>
        <coordinates>
13.45695,52.50706
        </coordinates>
      </Point>
    </Placemark>
    <Placemark>
      <name>2019-01-09 : Dicke Wirtin : Carmerstra&#223;e 9 : Charlottenburg : 8</name>
      <Point>
        <coordinates>
13.32348,52.50655
        </coordinates>
      </Point>
    </Placemark>
    <Placemark>
      <name>2019-01-30 : Alte Dorfecke : Alt-Tempelhof 61 : Tempelhof : 8</name>
      <Point>
        <coordinates>
13.37804,52.46578
        </coordinates>
      </Point>
    </Placemark>
    <Placemark>
      <name>2019-02-27 : The Castle Friedrichshain : Frankfurter Tor 7 : Friedrichshain : 10</name>
      <Point>
        <coordinates>
13.45417,52.51507
        </coordinates>
      </Point>
    </Placemark>
    <Placemark>
      <name>2019-03-27 : Caf&#233; Uebereck : Sonntagstr. 31 : Friedrichshain : 8</name>
      <Point>
        <coordinates>
13.466479,52.505370
        </coordinates>
      </Point>
    </Placemark>
    <Placemark>
      <name>2019-04-24 : Schleusenkrug : am Landwehrkanal : Tiergarten : 5</name>
      <Point>
        <coordinates>
13.336045,52.511182
        </coordinates>
      </Point>
    </Placemark>
    <Placemark>
      <name>2019-05-29 : Marjan-Grill : Flensburger Str./S-Bellevue : Hansaviertel : 13</name>
      <Point>
        <coordinates>
13.346919,52.520065
        </coordinates>
      </Point>
    </Placemark>
    <Placemark>
      <name>2019-06-26 : Prater : Kastanienallee 7 : Prenzlauer Berg : 7</name>
      <Point>
        <coordinates>
13.410031,52.539821
        </coordinates>
      </Point>
    </Placemark>
    <Placemark>
      <name>2019-07-31 : Caf&#233; Schmitts : Oderstr. 8 : Friedrichshain : 10</name>
      <Point>
        <coordinates>
13.468645,52.51117
        </coordinates>
      </Point>
    </Placemark>
    <Placemark>
      <name>2019-08-28 : Uferlos : Uferstr. 13 : Wedding : 10</name>
      <Point>
        <coordinates>
13.37335,52.55061
        </coordinates>
      </Point>
    </Placemark>
    <Placemark>
      <name>2019-09-25 : Prager Hopfenstube : Karl-Marx-Allee 127 : Friedrichshain : ~10</name>
      <Point>
        <coordinates>
13.44839,52.51693
        </coordinates>
      </Point>
    </Placemark>
    <Placemark>
      <name>2019-10-29 : Tiergarten-Quelle : Bachstr. 6 (Bogen 482) : Tiergarten : 9</name>
      <Point>
        <coordinates>
13.338469,52.516775
        </coordinates>
      </Point>
    </Placemark>
    <Placemark>
      <name>2019-11-27 : Pap&#224; Pane di Sorrento : Ackerstr. 23 : Mitte : 7</name>
      <Point>
        <coordinates>
13.396334,52.531914
        </coordinates>
      </Point>
    </Placemark>
    <Placemark>
      <name>2020-01-08 : Caf&#233; Leander : Jungstr. 29 : Friedrichshain : 12</name>
      <Point>
        <coordinates>
13.466270,52.511846
        </coordinates>
      </Point>
    </Placemark>
    <Placemark>
      <name>2020-01-29 : &#1044;&#1072;&#1095;&#1072; : Gabriel-Max-Str. 1 : Friedrichshain : 7</name>
      <Point>
        <coordinates>
13.457995,52.509419
        </coordinates>
      </Point>
    </Placemark>
    <Placemark>
      <name>2020-02-26 : Kurhaus Korsakow : Gr&#252;nberger Str. 81 : Friedrichshain : 9</name>
      <Point>
        <coordinates>
13.46092,52.51126
        </coordinates>
      </Point>
    </Placemark>
  </Document>
</kml>
